name,street,city,state,postcode,phone,lat,lon,page_url
Healthy Food & Meal Prep – Clean Eatz Alabama Restaurant Locations,203 Racine Drive,Wilmington,NC,28403,(910) 452-3733,,,https://locations.cleaneatz.com/al/
Auburn Healthy Food & Meal Prep – Clean Eatz Restaurant,1800 Samford Trace Ct #230,Auburn,AL,36830,,32.6024268,-85.4406994,https://locations.cleaneatz.com/al/auburn/meal-prep-145.html
Hoover Healthy Food & Meal Prep – Clean Eatz Restaurant,"1021 Brocks Gap Pkwy, STE 141",Hoover,AL,35244,,33.345932,-86.8493576,https://locations.cleaneatz.com/al/hoover/meal-prep-80.html
Mobile Healthy Food & Meal Prep – Clean Eatz Restaurant,7335 Airport Blvd,Mobile,AL,36608,,30.6864523,-88.2169095,https://locations.cleaneatz.com/al/mobile/meal-prep-2.html
Tuscaloosa Healthy Food & Meal Prep – Clean Eatz Restaurant,"2008 University Blvd., SUITE A",Tuscaloosa,AL,35401,,33.21164792,-87.56373444,https://locations.cleaneatz.com/al/tuscaloosa/meal-prep-122.html
Glendale Healthy Food & Meal Prep – Clean Eatz Restaurant,"5870 W. Thunderbird Road, Suite A4",Glendale,AZ,85306,,33.6125597,-112.1849525,https://locations.cleaneatz.com/az/glendale/meal-prep-56.html
Phoenix Healthy Food & Meal Prep – Clean Eatz Restaurant,4722 East Ray Rd #9,Phoenix,AZ,85044,,33.321708,-111.981863,https://locations.cleaneatz.com/az/phoenix/meal-prep-149.html
Scottsdale Healthy Food & Meal Prep – Clean Eatz Restaurant,17050 N Thompson Peak Parkway #120,Scottsdale,AZ,85255,,33.6415754,-111.8616668,https://locations.cleaneatz.com/az/scottsdale/meal-prep-144.html
Colorado Springs Healthy Food & Meal Prep – Clean Eatz Restaurant,5118 N Nevada Avenue,Colorado Springs,CO,80918,,38.90321763,-104.81931318,https://locations.cleaneatz.com/co/coloradosprings/meal-prep-135.html
Fort Collins Healthy Food & Meal Prep – Clean Eatz Restaurant,103 West Harvard St.,Fort Collins,CO,80525,,40.548904,-105.077673,https://locations.cleaneatz.com/co/fortcollins/meal-prep-148.html
Johnstown Healthy Food & Meal Prep – Clean Eatz Restaurant,4838 Larimer Parkway,Johnstown,CO,80534,,40.4064492,-104.9744119,https://locations.cleaneatz.com/co/johnstown/meal-prep-64.html
Pueblo Healthy Food & Meal Prep – Clean Eatz Restaurant,201 S. Union Avenue,Pueblo,CO,81003,,38.264386,-104.613888,https://locations.cleaneatz.com/co/pueblo/meal-prep-158.html
Newtown Healthy Food & Meal Prep – Clean Eatz Restaurant,266 S Main St,Newtown,CT,06470,,41.3687464,-73.2727641,https://locations.cleaneatz.com/ct/newtown/meal-prep-142.html
Dover Healthy Food & Meal Prep – Clean Eatz Restaurant,1128 Forrest Ave C,Dover,DE,19904,,39.1583718,-75.547176,https://locations.cleaneatz.com/de/dover/meal-prep-154.html
Belleair Bluffs Healthy Food & Meal Prep – Clean Eatz Restaurant,2927 West Bay Dr.,Belleair Bluffs,FL,33770,,27.9174109,-82.8192271,https://locations.cleaneatz.com/fl/belleairbluffs/meal-prep-101.html
Boynton Beach Healthy Food & Meal Prep – Clean Eatz Restaurant,701 N Congress Ave,Boynton Beach,FL,33426,,26.5353504,-80.0913673,https://locations.cleaneatz.com/fl/boyntonbeach/meal-prep-143.html
Coconut Creek Healthy Food & Meal Prep – Clean Eatz Restaurant,4800 W Hillsboro Blvd Suite A10,Coconut Creek,FL,33073,,26.3163889,-80.1891743,https://locations.cleaneatz.com/fl/coconutcreek/meal-prep-138.html
Jacksonville Healthy Food & Meal Prep – Clean Eatz Restaurant,4828 W Deer Lake Dr Suite 1,Jacksonville,FL,32246,,30.25864791,-81.55395507,https://locations.cleaneatz.com/fl/jacksonville/meal-prep-97.html
Jacksonville Healthy Food & Meal Prep – Clean Eatz Restaurant,140 Little Cypress Dr.  Suite 101,Jacksonville,FL,32259,,30.1040861,-81.4811391,https://locations.cleaneatz.com/fl/jacksonville/meal-prep-141.html
Lake Mary Healthy Food & Meal Prep – Clean Eatz Restaurant,438 Rinehart Rd #1050,Lake Mary,FL,32746,,28.77136861,-81.34779444,https://locations.cleaneatz.com/fl/lakemary/meal-prep-128.html
Orlando Healthy Food & Meal Prep – Clean Eatz Restaurant,2205 S Orange Ave. Unit A,Orlando,FL,32806,,28.5172362,-81.3761372,https://locations.cleaneatz.com/fl/orlando/meal-prep-88.html
Pensacola Healthy Food & Meal Prep – Clean Eatz Restaurant,800 North Navy Blvd.,Pensacola,FL,32507,,30.4008613,-87.2768904,https://locations.cleaneatz.com/fl/pensacola/meal-prep-47.html
Port St. Lucie Healthy Food & Meal Prep – Clean Eatz Restaurant,"10836 SW Village Parkway, Suite 10836",Port St. Lucie,FL,34987,,27.27870368,-80.43380737,https://locations.cleaneatz.com/fl/portst-lucie/meal-prep-115.html
Sarasota Healthy Food & Meal Prep – Clean Eatz Restaurant,4061 Clark Road,Sarasota,FL,34236,,27.2700547,-82.4877157,https://locations.cleaneatz.com/fl/sarasota/meal-prep-164.html
Shalimar Healthy Food & Meal Prep – Clean Eatz Restaurant,1191 Eglin Pkwy,Shalimar,FL,32579,,30.4423867,-86.5800137,https://locations.cleaneatz.com/fl/shalimar/meal-prep-4.html
St. Petersburg Healthy Food & Meal Prep – Clean Eatz Restaurant,6840 22nd Ave N,St. Petersburg,FL,33710,,27.7906957,-82.7341031,https://locations.cleaneatz.com/fl/st-petersburg/meal-prep-5.html
Tallahassee Healthy Food & Meal Prep – Clean Eatz Restaurant,"1000 Railroad Ave, Suite 101",Tallahassee,FL,32310,,30.4330608,-84.2900067,https://locations.cleaneatz.com/fl/tallahassee/meal-prep-92.html
West Palm Beach Healthy Food & Meal Prep – Clean Eatz Restaurant,1540 Palm Beach Lakes Blvd Suite 140,West Palm Beach,FL,33401,,26.7246036,-80.0786743,https://locations.cleaneatz.com/fl/westpalmbeach/meal-prep-44.html
Winter Garden Healthy Food & Meal Prep – Clean Eatz Restaurant,"9250 Miley Drive, Suite 150",Winter Garden,FL,34787,,28.4284550951564,-81.61846340136,https://locations.cleaneatz.com/fl/wintergarden/meal-prep-109.html
Acworth Healthy Food & Meal Prep – Clean Eatz Restaurant,3450 Cobb Pkwy NW #220,Acworth,GA,30101,,34.03957164,-84.69000621,https://locations.cleaneatz.com/ga/acworth/meal-prep-137.html
Athens Healthy Food & Meal Prep – Clean Eatz Restaurant,"1791 Oconee Connector, Suite 560",Athens,GA,30606,,33.9170398,-83.4556335,https://locations.cleaneatz.com/ga/athens/meal-prep-98.html
Augusta Healthy Food & Meal Prep – Clean Eatz Restaurant,"630 Crane Creek Dr., Suite 504",Augusta,GA,30907,,33.4971079,-82.0799474,https://locations.cleaneatz.com/ga/augusta/meal-prep-59.html
Columbus Healthy Food & Meal Prep – Clean Eatz Restaurant,3500 Massee Lane Suite A,Columbus,GA,31909,,32.5676664,-84.9388706,https://locations.cleaneatz.com/ga/columbus/meal-prep-7.html
Douglasville Healthy Food & Meal Prep – Clean Eatz Restaurant,9365 The Landing Drive,Douglasville,GA,30135,,33.729646,-84.739995,https://locations.cleaneatz.com/ga/douglasville/meal-prep-157.html
Peachtree City Healthy Food & Meal Prep – Clean Eatz Restaurant,282 SR 74 N,Peachtree City,GA,30269,,33.4077616,-84.600531,https://locations.cleaneatz.com/ga/peachtreecity/meal-prep-91.html
Pooler Healthy Food & Meal Prep – Clean Eatz Restaurant,"1 N Godley Station Blvd., Suite 111",Pooler,GA,31322,,32.13525056,-81.2573898,https://locations.cleaneatz.com/ga/pooler/meal-prep-113.html
Roswell Healthy Food & Meal Prep – Clean Eatz Restaurant,"610 West Crossville Road, Suite 100",Roswell,GA,30075,,34.0572692,-84.3818328,https://locations.cleaneatz.com/ga/roswell/meal-prep-107.html
Sandy Springs Healthy Food & Meal Prep – Clean Eatz Restaurant,"5600 Roswell Rd., B100",Sandy Springs,GA,30342,,33.906651,-84.37929326,https://locations.cleaneatz.com/ga/sandysprings/meal-prep-117.html
Savannah Healthy Food & Meal Prep – Clean Eatz Restaurant,6825 Waters Ave,Savannah,GA,31406,,32.0073397,-81.1011343,https://locations.cleaneatz.com/ga/savannah/meal-prep-8.html
Suwanee Healthy Food & Meal Prep – Clean Eatz Restaurant,3630 Peachtree Pkwy #703,Suwanee,GA,30024,,34.069282,-84.169417,https://locations.cleaneatz.com/ga/suwanee/meal-prep-152.html
Meridian Healthy Food & Meal Prep – Clean Eatz Restaurant,3143 E Magic View Dr STE 120,Meridian,ID,83642,,43.5991845,-116.3557602,https://locations.cleaneatz.com/id/meridian/meal-prep-147.html
Algonquin Healthy Food & Meal Prep – Clean Eatz Restaurant,776B South Randall Road,Algonquin,IL,60102,,42.1631644,-88.3362069,https://locations.cleaneatz.com/il/algonquin/meal-prep-94.html
Edwardsville Healthy Food & Meal Prep – Clean Eatz Restaurant,316 S Buchanan St,Edwardsville,IL,62025,,38.8086454,-89.9517758,https://locations.cleaneatz.com/il/edwardsville/meal-prep-9.html
Orland Park Healthy Food & Meal Prep – Clean Eatz Restaurant,15892 S. LaGrange Rd.,Orland Park,IL,60462,,41.601698,-87.8541818,https://locations.cleaneatz.com/il/orlandpark/meal-prep-66.html
Quincy Healthy Food & Meal Prep – Clean Eatz Restaurant,4490 Broadway St.,Quincy,IL,62305,,39.9347819,-91.3439702,https://locations.cleaneatz.com/il/quincy/meal-prep-153.html
Fishers Healthy Food & Meal Prep – Clean Eatz Restaurant,8510 E 96th Street Unit D,Fishers,IN,46037,,39.9273734,-86.0189284,https://locations.cleaneatz.com/in/fishers/meal-prep-86.html
Fort Wayne Healthy Food & Meal Prep – Clean Eatz Restaurant,"4916 Illinois Road, #114",Fort Wayne,IN,46804,,41.0758412,-85.20554451,https://locations.cleaneatz.com/in/fortwayne/meal-prep-121.html
Indianapolis Healthy Food & Meal Prep – Clean Eatz Restaurant,8545 S Emerson Ave Ste 101 Suite 101,Indianapolis,IN,46237,,39.6422761353761,-86.081541411637,https://locations.cleaneatz.com/in/indianapolis/meal-prep-166.html
Bowling Green Healthy Food & Meal Prep – Clean Eatz Restaurant,1747 Scottsville Rd,Bowling Green,KY,42104,,36.967147,-86.433315,https://locations.cleaneatz.com/ky/bowlinggreen/meal-prep-161.html
Jeffersontown Healthy Food & Meal Prep – Clean Eatz Restaurant,9545 Taylorsville Rd,Jeffersontown,KY,40299,,38.2063006,-85.5784256,https://locations.cleaneatz.com/ky/jeffersontown/meal-prep-150.html
Louisville Healthy Food & Meal Prep – Clean Eatz Restaurant,3565 Springhurst Blvd.,Louisville,KY,40241,,38.2987567,-85.5601684,https://locations.cleaneatz.com/ky/louisville/meal-prep-103.html
Newport Healthy Food & Meal Prep – Clean Eatz Restaurant,1759 Monmouth St.,Newport,KY,41071,,39.0829051,-84.47999,https://locations.cleaneatz.com/ky/newport/meal-prep-76.html
Danvers Healthy Food & Meal Prep – Clean Eatz Restaurant,156 Andover Street,Danvers,MA,01923,,42.55713685,-70.97025651,https://locations.cleaneatz.com/ma/danvers/meal-prep-130.html
Grand Rapids Healthy Food & Meal Prep – Clean Eatz Restaurant,6080 28th St. SE,Grand Rapids,MI,49546,,42.9145114,-85.5219553,https://locations.cleaneatz.com/mi/grandrapids/meal-prep-54.html
Rochester Hills Healthy Food & Meal Prep – Clean Eatz Restaurant,1194 Walton Blvd.,Rochester Hills,MI,48307,,42.6825685,-83.1504102,https://locations.cleaneatz.com/mi/rochesterhills/meal-prep-106.html
Troy Healthy Food & Meal Prep – Clean Eatz Restaurant,319 E. Big Beaver Road,Troy,MI,48083,,42.5629484,-83.1407539,https://locations.cleaneatz.com/mi/troy/meal-prep-77.html
Kansas City Healthy Food & Meal Prep – Clean Eatz Restaurant,5357 NE Antioch Rd,Kansas City,MO,64119,,39.2146394,-94.5352532,https://locations.cleaneatz.com/mo/kansascity/meal-prep-151.html
O'Fallon Healthy Food & Meal Prep – Clean Eatz Restaurant,325 Winding Woods Ctr,O'Fallon,MO,63366,,38.78342963,-90.69879261,https://locations.cleaneatz.com/mo/ofallon/meal-prep-118.html
St. Louis Healthy Food & Meal Prep – Clean Eatz Restaurant,12456 Tesson Ferry Rd.,St. Louis,MO,63128,,38.5082096,-90.375241,https://locations.cleaneatz.com/mo/st-louis/meal-prep-102.html
Asheville Healthy Food & Meal Prep – Clean Eatz Restaurant,1950 Hendersonville Rd. Suite 11,Asheville,NC,28803,,35.4911739,-82.5221278,https://locations.cleaneatz.com/nc/asheville/meal-prep-10.html
Boone Healthy Food & Meal Prep – Clean Eatz Restaurant,273 Boone Heights Dr.,Boone,NC,28607,,36.2015254,-81.6570584,https://locations.cleaneatz.com/nc/boone/meal-prep-11.html
Cary Healthy Food & Meal Prep – Clean Eatz Restaurant,1856 Boulderstone Way,Cary,NC,27519,,35.7914286,-78.8507007,https://locations.cleaneatz.com/nc/cary/meal-prep-12.html
Charlotte Healthy Food & Meal Prep – Clean Eatz Restaurant,2215 Ayrsley Town Blvd.,Charlotte,NC,28273,,35.1380944,-80.9352458,https://locations.cleaneatz.com/nc/charlotte/meal-prep-13.html
Charlotte Healthy Food & Meal Prep – Clean Eatz Restaurant,"1800 Camden Rd, Suite 108",Charlotte,NC,28203,,35.2126304,-80.8593264,https://locations.cleaneatz.com/nc/charlotte/meal-prep-14.html
Concord Healthy Food & Meal Prep – Clean Eatz Restaurant,"8694 Concord Mills Boulevard, Suite #30",Concord,NC,28027,,35.3754266,-80.72996541,https://locations.cleaneatz.com/nc/concord/meal-prep-116.html
Cornelius Healthy Food & Meal Prep – Clean Eatz Restaurant,17111 Kenton Drive unit 101B,Cornelius,NC,28031,,35.4492384,-80.8899337,https://locations.cleaneatz.com/nc/cornelius/meal-prep-15.html
Durham Healthy Food & Meal Prep – Clean Eatz Restaurant,5320 McFarland dr. unit 110,Durham,NC,27707,,35.9516811,-78.9931112,https://locations.cleaneatz.com/nc/durham/meal-prep-93.html
Fayetteville Healthy Food & Meal Prep – Clean Eatz Restaurant,229 Westwood Shopping Center,Fayetteville,NC,28314,,35.0655124,-78.9526441,https://locations.cleaneatz.com/nc/fayetteville/meal-prep-16.html
Goldsboro Healthy Food & Meal Prep – Clean Eatz Restaurant,2313 E Ash St.,Goldsboro,NC,27534,,35.37572216,-77.95921779,https://locations.cleaneatz.com/nc/goldsboro/meal-prep-17.html
Jacksonville Healthy Food & Meal Prep – Clean Eatz Restaurant,1843 Lejeune Blvd,Jacksonville,NC,28546,,34.7426453,-77.3756654,https://locations.cleaneatz.com/nc/jacksonville/meal-prep-20.html
Mooresville Healthy Food & Meal Prep – Clean Eatz Restaurant,"137 Center Square Dr., Unit 6B",Mooresville,NC,28117,,35.5874846,-80.8717005,https://locations.cleaneatz.com/nc/mooresville/meal-prep-45.html
Raleigh Healthy Food & Meal Prep – Clean Eatz Restaurant,7461 Six Forks Road,Raleigh,NC,27615,,35.8817185,-78.6465051,https://locations.cleaneatz.com/nc/raleigh/meal-prep-21.html
Southern Pines Healthy Food & Meal Prep – Clean Eatz Restaurant,1930 N Poplar St,Southern Pines,NC,28387,,35.157523,-79.4112382,https://locations.cleaneatz.com/nc/southernpines/meal-prep-22.html
Wilmington Healthy Food & Meal Prep – Clean Eatz Restaurant,4389 Oleander Dr.,Wilmington,NC,28403,,34.2114676,-77.8893451,https://locations.cleaneatz.com/nc/wilmington/meal-prep-140.html
Winston-Salem Healthy Food & Meal Prep – Clean Eatz Restaurant,214 Harvey Street,Winston-Salem,NC,27103,,36.0998596,-80.244216,https://locations.cleaneatz.com/nc/winston-salem/meal-prep-25.html
Omaha Healthy Food & Meal Prep – Clean Eatz Restaurant,"920 S. 107th Avenue, Suite 110",Omaha,NE,68114,,41.24980649,-96.08273332,https://locations.cleaneatz.com/ne/omaha/meal-prep-124.html
Beavercreek Healthy Food & Meal Prep – Clean Eatz Restaurant,"2781 Centre Dr., A2",Beavercreek,OH,45324,,39.7705145,-84.0506748,https://locations.cleaneatz.com/oh/beavercreek/meal-prep-108.html
Canton Healthy Food & Meal Prep – Clean Eatz Restaurant,5111 W Tuscarawas St.,Canton,OH,44708,,40.79506108,-81.44768519,https://locations.cleaneatz.com/oh/canton/meal-prep-26.html
Cincinnati Healthy Food & Meal Prep – Clean Eatz Restaurant,5770 Harrison Ave,Cincinnati,OH,45248,,39.17195719,-84.63876818,https://locations.cleaneatz.com/oh/cincinnati/meal-prep-136.html
Cincinnati Healthy Food & Meal Prep – Clean Eatz Restaurant,4450 Eastgate S Drive Suite 205,Cincinnati,OH,45245,,39.0937474827908,-84.274043628835,https://locations.cleaneatz.com/oh/cincinnati/meal-prep-163.html
Cuyahoga Falls Healthy Food & Meal Prep – Clean Eatz Restaurant,1791 Front St,Cuyahoga Falls,OH,44221,,41.1292781,-81.4842566,https://locations.cleaneatz.com/oh/cuyahogafalls/meal-prep-28.html
Dublin Healthy Food & Meal Prep – Clean Eatz Restaurant,7571 Sawmill Rd.,Dublin,OH,43016,,40.1202835,-83.091077,https://locations.cleaneatz.com/oh/dublin/meal-prep-74.html
Grandview Heights Healthy Food & Meal Prep – Clean Eatz Restaurant,855 Goodale Blvd,Grandview Heights,OH,43212,,39.974167,-83.026389,https://locations.cleaneatz.com/oh/grandviewheights/meal-prep-27.html
Grove City Healthy Food & Meal Prep – Clean Eatz Restaurant,3621 Southwest Blvd,Grove City,OH,43123,,39.8879796,-83.1003419,https://locations.cleaneatz.com/oh/grovecity/meal-prep-146.html
Mentor Healthy Food & Meal Prep – Clean Eatz Restaurant,9385 Mentor Avenue,Mentor,OH,44060,,41.6803216,-81.3023098,https://locations.cleaneatz.com/oh/mentor/meal-prep-29.html
Montgomery Healthy Food & Meal Prep – Clean Eatz Restaurant,9875 Montgomery Rd.,Montgomery,OH,45242,,39.236221,-84.351253,https://locations.cleaneatz.com/oh/montgomery/meal-prep-162.html
New Albany Healthy Food & Meal Prep – Clean Eatz Restaurant,5763 N. Hamilton Road,New Albany,OH,43230,,40.07421875,-82.86145782,https://locations.cleaneatz.com/oh/newalbany/meal-prep-96.html
Pickerington Healthy Food & Meal Prep – Clean Eatz Restaurant,10710 Blacklick-Eastern Rd. NW Suite 300 Suite 300,Pickerington,OH,43147,,39.93006348806,-82.787015403594,https://locations.cleaneatz.com/oh/pickerington/meal-prep-165.html
West Chester Township Healthy Food & Meal Prep – Clean Eatz Restaurant,7692 Voice of America Centre Dr.,West Chester Township,OH,45069,,39.3535627,-84.3625387,https://locations.cleaneatz.com/oh/westchestertownship/meal-prep-79.html
Westlake Healthy Food & Meal Prep – Clean Eatz Restaurant,26300 Detroit Road,Westlake,OH,44145,,41.4689799,-81.9119221,https://locations.cleaneatz.com/oh/westlake/meal-prep-100.html
Altoona Healthy Food & Meal Prep – Clean Eatz Restaurant,174 Falon Lane,Altoona,PA,16602,,40.48642197,-78.38666345,https://locations.cleaneatz.com/pa/altoona/meal-prep-125.html
Camp Hill Healthy Food & Meal Prep – Clean Eatz Restaurant,3546 Gettysburg Road,Camp Hill,PA,17011,,40.22520323,-76.93694667,https://locations.cleaneatz.com/pa/camphill/meal-prep-110.html
Cranberry Township Healthy Food & Meal Prep – Clean Eatz Restaurant,"20436 Route 19, #610",Cranberry Township,PA,16066,,40.6956164,-80.1038075,https://locations.cleaneatz.com/pa/cranberrytownship/meal-prep-95.html
Lancaster Healthy Food & Meal Prep – Clean Eatz Restaurant,1876 Fruitville Pike,Lancaster,PA,17601,,40.0722323,-76.3209674,https://locations.cleaneatz.com/pa/lancaster/meal-prep-30.html
Pittsburgh Healthy Food & Meal Prep – Clean Eatz Restaurant,175 Freeport Road,Pittsburgh,PA,15238,,40.49162292,-79.86556243,https://locations.cleaneatz.com/pa/pittsburgh/meal-prep-78.html
Wyomissing Healthy Food & Meal Prep – Clean Eatz Restaurant,1665 State Hill Rd.,Wyomissing,PA,19610,,40.33800888,-75.97138214,https://locations.cleaneatz.com/pa/wyomissing/meal-prep-104.html
Columbia Healthy Food & Meal Prep – Clean Eatz Restaurant,5550 Forest Drive,Columbia,SC,29206,,34.0234931,-80.9517314,https://locations.cleaneatz.com/sc/columbia/meal-prep-31.html
Greenville Healthy Food & Meal Prep – Clean Eatz Restaurant,3608 Pelham Rd Suite C,Greenville,SC,29615,,34.8594349,-82.2705567,https://locations.cleaneatz.com/sc/greenville/meal-prep-35.html
Lexington Healthy Food & Meal Prep – Clean Eatz Restaurant,5225 Sunset Blvd Suite D,Lexington,SC,29072,,34.0041607,-81.2038895,https://locations.cleaneatz.com/sc/lexington/meal-prep-36.html
Chattanooga Healthy Food & Meal Prep – Clean Eatz Restaurant,1414 Jenkins Rd Suite #100,Chattanooga,TN,37421,,35.0088163,-85.1520611,https://locations.cleaneatz.com/tn/chattanooga/meal-prep-67.html
Johnson City Healthy Food & Meal Prep – Clean Eatz Restaurant,2049 Hamilton Place,Johnson City,TN,37604,,36.3355599,-82.4061647,https://locations.cleaneatz.com/tn/johnsoncity/meal-prep-169.html
Knoxville Healthy Food & Meal Prep – Clean Eatz Restaurant,215 Brookview Centre Way #104,Knoxville,TN,37919,,35.934692,-84.0038626,https://locations.cleaneatz.com/tn/knoxville/meal-prep-38.html
Knoxville Healthy Food & Meal Prep – Clean Eatz Restaurant,155 West End Ave,Knoxville,TN,37934,,35.8857254,-84.1558175,https://locations.cleaneatz.com/tn/knoxville/meal-prep-39.html
Maryville Healthy Food & Meal Prep – Clean Eatz Restaurant,551 N Foothills Plaza Dr.,Maryville,TN,37801,,35.739948,-83.992254,https://locations.cleaneatz.com/tn/maryville/meal-prep-48.html
Murfreesboro Healthy Food & Meal Prep – Clean Eatz Restaurant,2222 Medical Center Pkwy,Murfreesboro,TN,37129,,35.8583852,-86.4353767,https://locations.cleaneatz.com/tn/murfreesboro/meal-prep-49.html
Nashville Healthy Food & Meal Prep – Clean Eatz Restaurant,4004 Hillsboro Pike Suite 115-R,Nashville,TN,37215,,36.1035946,-86.8140901,https://locations.cleaneatz.com/tn/nashville/meal-prep-40.html
College Station Healthy Food & Meal Prep – Clean Eatz Restaurant,1800 Texas Ave South Suite B,College Station,TX,77840,,30.6146145,-96.3189437,https://locations.cleaneatz.com/tx/collegestation/meal-prep-139.html
Flower Mound Healthy Food & Meal Prep – Clean Eatz Restaurant,"2201 Long Prairie Rd., Suite 101",Flower Mound,TX,75022,,33.0157593,-97.0714204,https://locations.cleaneatz.com/tx/flowermound/meal-prep-70.html
Round Rock Healthy Food & Meal Prep – Clean Eatz Restaurant,"201 University Oaks Blvd., Suite #790",Round Rock,TX,78665,,30.55696003,-97.68700677,https://locations.cleaneatz.com/tx/roundrock/meal-prep-123.html
San Antonio Healthy Food & Meal Prep – Clean Eatz Restaurant,"158 E Sonterra Blvd., Ste #106",San Antonio,TX,78258,,29.61614694,-98.49204991,https://locations.cleaneatz.com/tx/sanantonio/meal-prep-127.html
Universal City Healthy Food & Meal Prep – Clean Eatz Restaurant,2935 Pat Booker Rd #124,Universal City,TX,78148,,29.558906,-98.324687,https://locations.cleaneatz.com/tx/universalcity/meal-prep-160.html
Willow Park Healthy Food & Meal Prep – Clean Eatz Restaurant,337 Shops Blvd Ste. 104,Willow Park,TX,76087,,32.744564233811,-97.66000468398,https://locations.cleaneatz.com/tx/willowpark/meal-prep-168.html
Salt Lake City Healthy Food & Meal Prep – Clean Eatz Restaurant,5470 900 E Unit 3,Salt Lake City,UT,84107,,40.652414,-111.866417,https://locations.cleaneatz.com/ut/saltlakecity/meal-prep-159.html
Centreville Healthy Food & Meal Prep – Clean Eatz Restaurant,5053A Westfields Blvd.,Centreville,VA,20120,,38.86811696,-77.44764304,https://locations.cleaneatz.com/va/centreville/meal-prep-126.html
Chesapeake Healthy Food & Meal Prep – Clean Eatz Restaurant,1036 Volvo Pkwy #3,Chesapeake,VA,23320,,36.7702933,-76.2241401,https://locations.cleaneatz.com/va/chesapeake/meal-prep-99.html
Fredericksburg Healthy Food & Meal Prep – Clean Eatz Restaurant,5426 Southpoint Plaza Way,Fredericksburg,VA,22407,,38.2316,-77.5023477,https://locations.cleaneatz.com/va/fredericksburg/meal-prep-71.html
Midlothian Healthy Food & Meal Prep – Clean Eatz Restaurant,13534 Waterford Place,Midlothian,VA,23112,,37.45134442,-77.64802034,https://locations.cleaneatz.com/va/midlothian/meal-prep-120.html
Norfolk Healthy Food & Meal Prep – Clean Eatz Restaurant,7628 Granby St.,Norfolk,VA,23505,,36.915793,-76.2721334,https://locations.cleaneatz.com/va/norfolk/meal-prep-42.html
Richmond Healthy Food & Meal Prep – Clean Eatz Restaurant,11801 West Broad St.,Richmond,VA,23112,,37.65307125,-77.62393306,https://locations.cleaneatz.com/va/richmond/meal-prep-82.html
Stafford Healthy Food & Meal Prep – Clean Eatz Restaurant,315 Garrisonville Rd #112,Stafford,VA,22554,,38.4740565,-77.4213254,https://locations.cleaneatz.com/va/stafford/meal-prep-156.html
Virginia Beach Healthy Food & Meal Prep – Clean Eatz Restaurant,1065 Independence Blvd,Virginia Beach,VA,23455,,36.8720596,-76.1357778,https://locations.cleaneatz.com/va/virginiabeach/meal-prep-41.html
Cheyenne Healthy Food & Meal Prep – Clean Eatz Restaurant,2320 Chestnut Dr #400,Cheyenne,WY,82001,,41.14441736,-104.78937957,https://locations.cleaneatz.com/wy/cheyenne/meal-prep-133.html
